[{"lat":"39.9517078","lng":"-75.1737131","id":14049942,"name":"20th Street Pizza","address":"108 S 20th St","country":"USA","state":"PA","city":"Philadelphia","postal":"19103","priority":1,"apply_to_type":1},{"lat":"39.9659615","lng":"-74.9482018","id":14049943,"name":"Abandoned Luncheonette","address":"235 Mill St","country":"USA","state":"NJ","city":"Moorestown","postal":"08057","priority":1,"apply_to_type":1},{"lat":"45.662159","lng":"-110.5612994","id":14049944,"name":"Alpine Peaks","address":"105 W Park, St #5","country":"USA","state":"MT","city":"Livingston","postal":"59047","priority":1,"apply_to_type":1},{"lat":"39.5641819","lng":"-74.2404235","id":14049945,"name":"Barry’s Do Me a Flavor","address":"309 Centre St","country":"USA","state":"NJ","city":"Beach Haven","postal":"08008","priority":1,"apply_to_type":1},{"lat":"39.938593","lng":"-75.157156","id":14049946,"name":"Biederman's","address":"824 Christian St","country":"USA","state":"PA","city":"Philadelphia","postal":"19147","priority":1,"apply_to_type":1},{"lat":"39.3921944","lng":"-74.5608961","id":14049947,"name":"Bonterra Market","address":"3112 Fire Rd","country":"USA","state":"NJ","city":"Egg Harbor Township","postal":"08234","priority":1,"apply_to_type":1},{"lat":"39.8094414","lng":"-75.5447613","id":14049948,"name":"Boro Gelato Co.","address":"3549 Silverside Rd","country":"USA","state":"DE","city":"Wilmington","postal":"19810","priority":1,"apply_to_type":1},{"lat":"39.8701193","lng":"-75.5930734","id":14049949,"name":"Brandywine Conservancy and Museum of Art","address":"1 Hoffmans Mill Rd","country":"USA","state":"PA","city":"Chadds Ford","postal":"19317","priority":1,"apply_to_type":1},{"lat":"38.9302494","lng":"-74.9169952","id":14049950,"name":"Buoy Cafe","address":"722 Beach Ave","country":"USA","state":"NJ","city":"Cape May","postal":"08204","priority":1,"apply_to_type":1},{"lat":"39.221456","lng":"-77.223226","id":14049951,"name":"Butler's Orchard","address":"22222 Davis Mill Rd","country":"USA","state":"MD","city":"Germantown","postal":"20876","priority":1,"apply_to_type":1},{"lat":"39.9184365","lng":"-75.3903796","id":14049952,"name":"Cafe Isla","address":"24 S Plum St, Media","country":"USA","state":"PA","city":"Media","postal":"19063","priority":1,"apply_to_type":1},{"lat":"39.9723234","lng":"-75.1290653","id":14049953,"name":"Castellino's Italian Market","address":"1255 E Palmer St","country":"USA","state":"PA","city":"Philadelphia","postal":"19125","priority":1,"apply_to_type":1},{"lat":"40.2444738","lng":"-74.8355892","id":14049954,"name":"Charcoal byob","address":"11 S Delaware Ave","country":"USA","state":"PA","city":"Yardley","postal":"19067","priority":1,"apply_to_type":1},{"lat":"40.3086664","lng":"-74.7121935","id":14049955,"name":"Cherry Grove Farm","address":"3200 Lawrenceville Rd","country":"USA","state":"NJ","city":"Lawrence Township","postal":"08648","priority":1,"apply_to_type":1},{"lat":"40.0765064","lng":"-75.2062067","id":14049956,"name":"Chill on the Hill","address":"5 E Highland Ave","country":"USA","state":"PA","city":"Philadelphia","postal":"19118","priority":1,"apply_to_type":1},{"lat":"38.9318988","lng":"-76.9792748","id":14049957,"name":"City Garden Co-op","address":"3327 18th St #B","country":"USA","state":"DC","city":"Washington","postal":"20010","priority":1,"apply_to_type":1},{"lat":"39.9488499","lng":"-75.1740779","id":14049958,"name":"CORK The Wine Shop at COOK","address":"253 S 20th St","country":"USA","state":"PA","city":"Philadelphia","postal":"19103","priority":1,"apply_to_type":1},{"lat":"39.9704353","lng":"-75.1797659","id":14049959,"name":"Corner Stoop","address":"2601 Brown St","country":"USA","state":"PA","city":"Philadelphia","postal":"19130","priority":1,"apply_to_type":1},{"lat":"40.6416744","lng":"-75.5890945","id":14049960,"name":"Crooked Row Farm","address":"3245 PA-309","country":"USA","state":"PA","city":"Orefield","postal":"18069","priority":1,"apply_to_type":1},{"lat":"40.0261433","lng":"-75.2249568","id":14049961,"name":"Crust Vegan Bakery","address":"4409 Main St","country":"USA","state":"PA","city":"Philadelphia","postal":"19127","priority":1,"apply_to_type":1},{"lat":"40.1249139","lng":"-75.0627377","id":14049962,"name":"Dave's Backyard Farms","address":"2587 Huntingdon Pike","country":"USA","state":"PA","city":"Huntingdon Valley","postal":"19006","priority":1,"apply_to_type":1},{"lat":"39.7980886","lng":"-75.6603567","id":14049963,"name":"Delaware Nature Society","address":"3511 Barley Mill Rd","country":"USA","state":"DE","city":"Hockessin","postal":"19707","priority":1,"apply_to_type":1},{"lat":"40.0764042","lng":"-75.3042041","id":14049964,"name":"Deli On 4th","address":"326 Fayette St","country":"USA","state":"PA","city":"Conshohocken","postal":"19428","priority":1,"apply_to_type":1},{"lat":"40.0447849","lng":"-75.3995086","id":14049965,"name":"Di Bruno Bros","address":"385 W Lancaster Ave","country":"USA","state":"PA","city":"Wayne","postal":"19087","priority":1,"apply_to_type":1},{"lat":"39.9493428","lng":"-75.1554934","id":14049966,"name":"Di Bruno Bros","address":"834 Chestnut St #112","country":"USA","state":"PA","city":"Philadelphia","postal":"19107","priority":1,"apply_to_type":1},{"lat":"39.9380391","lng":"-75.1582433","id":14049967,"name":"Di Bruno Bros","address":"930 S 9th St","country":"USA","state":"PA","city":"Philadelphia","postal":"19147","priority":1,"apply_to_type":1},{"lat":"40.0075106","lng":"-75.2859575","id":14049968,"name":"Di Bruno Bros","address":"120 Coulter Ave","country":"USA","state":"PA","city":"Ardmore","postal":"19003","priority":1,"apply_to_type":1},{"lat":"39.951311","lng":"-75.1700653","id":14049969,"name":"Di Bruno Bros","address":"1730 Chestnut St","country":"USA","state":"PA","city":"Philadelphia","postal":"19103","priority":1,"apply_to_type":1},{"lat":"39.2992498","lng":"-77.2616856","id":14049970,"name":"East Rivendell Farm","address":"26904 Clarksburg Rd","country":"USA","state":"MD","city":"Damascus","postal":"20872","priority":1,"apply_to_type":1},{"lat":"39.2992498","lng":"-77.2616856","id":14049971,"name":"East Rivendell Farm","address":"26904 Clarksburg Rd","country":"USA","state":"MD","city":"Damascus","postal":"20872","priority":1,"apply_to_type":1},{"lat":"40.7949415","lng":"-74.4790194","id":14049972,"name":"Feasty Vegan","address":"62b South St","country":"USA","state":"NJ","city":"Morristown","postal":"07960","priority":1,"apply_to_type":1},{"lat":"40.547092","lng":"-74.974062","id":14049973,"name":"Flocktown Farm","address":"552 Pittstown Rd","country":"USA","state":"NJ","city":"Pittstown","postal":"08867","priority":1,"apply_to_type":1},{"lat":"39.9273125","lng":"-75.1472877","id":14049974,"name":"Giordano's","address":"1612-1620 S Front St","country":"USA","state":"PA","city":"Philadelphia","postal":"19148","priority":1,"apply_to_type":1},{"lat":"39.9364798","lng":"-75.1583039","id":14049975,"name":"Giordano's","address":"1043 S 9th St","country":"USA","state":"PA","city":"Philadelphia","postal":"19147","priority":1,"apply_to_type":1},{"lat":"39.9126773","lng":"-75.0551674","id":14049976,"name":"Goodbeet","address":"29 Haddon Ave","country":"USA","state":"NJ","city":"Haddon Township","postal":"08108","priority":1,"apply_to_type":1},{"lat":"40.2315214","lng":"-74.9366554","id":14049977,"name":"Grapevine Health and Nutrition","address":"7 N State St","country":"USA","state":"PA","city":"Newtown","postal":"18940","priority":1,"apply_to_type":1},{"lat":"40.0135937","lng":"-75.3012456","id":14049978,"name":"Green Engine","address":"16 Haverford Station Rd","country":"USA","state":"PA","city":"Haverford","postal":"19041","priority":1,"apply_to_type":1},{"lat":"40.6818928","lng":"-73.958346","id":14049979,"name":"Greene Hill Food Co-op","address":"1083 Fulton St,","country":"USA","state":"NY","city":"Brooklyn","postal":"11238","priority":1,"apply_to_type":1},{"lat":"38.419101","lng":"-75.409862","id":14049980,"name":"Groundworks Farm","address":"8284 Gumboro Rd","country":"USA","state":"MD","city":"Pittsville","postal":"21850","priority":1,"apply_to_type":1},{"lat":"39.9160554","lng":"-75.0675633","id":14049981,"name":"Haddon Culinary Market","address":"741 Haddon Ave","country":"USA","state":"NJ","city":"Collingswood","postal":"08108","priority":1,"apply_to_type":1},{"lat":"39.8960331","lng":"-75.0365637","id":14049982,"name":"Haddon Culinary Market","address":"9 Kings Hwy W","country":"USA","state":"NJ","city":"Haddonfield","priority":1,"apply_to_type":1},{"lat":"40.7291339","lng":"-73.9847094","id":14049983,"name":"HAGS","address":"163 1st Ave.","country":"USA","state":"NY","city":"New York","postal":"10003","priority":1,"apply_to_type":1},{"lat":"40.3036279","lng":"-76.8427924","id":14049984,"name":"Harvest Seasonal Grill","address":"2625 Brindle Dr","country":"USA","state":"PA","city":"Harrisburg","postal":"17110","priority":1,"apply_to_type":1},{"lat":"40.450316","lng":"-79.996936","id":14049985,"name":"Harvie Farms","address":"700 River Ave Suite 315","country":"USA","state":"PA","city":"Pittsburgh","postal":"15212","priority":1,"apply_to_type":1},{"lat":"39.9494611","lng":"-75.1554684","id":14049986,"name":"High Street","address":"101 S 9th St","country":"USA","state":"PA","city":"Philadelphia","postal":"19107","priority":1,"apply_to_type":1},{"lat":"39.9529913","lng":"-75.1922872","id":14049987,"name":"High Street Provisions","address":"3401 Walnut St","country":"USA","state":"PA","city":"Philadelphia","postal":"19104","priority":1,"apply_to_type":1},{"lat":"39.9611276","lng":"-75.6976901","id":14049988,"name":"Highland Orchards","address":"1000 Marshallton Thorndale Rd","country":"USA","state":"PA","city":"West Chester","postal":"19380","priority":1,"apply_to_type":1},{"lat":"39.1578168","lng":"-75.5249424","id":14049989,"name":"House of Coffi","address":"14 W Loockerman St","country":"USA","state":"DE","city":"Dover","postal":"19901","priority":1,"apply_to_type":1},{"lat":"40.0508285","lng":"-75.3489609","id":14049990,"name":"Inn at Villanova","address":"601 County Line Rd","country":"USA","state":"PA","city":"Wayne","postal":"19087","priority":1,"apply_to_type":1},{"lat":"40.8924006","lng":"-75.1539516","id":14049991,"name":"Johnsonville Farm and Garden","address":"154 Johnsonville Rd","country":"USA","state":"PA","city":"Bangor","postal":"18013","priority":1,"apply_to_type":1},{"lat":"40.694091","lng":"-74.6884593","id":14049992,"name":"Just Farmed","address":"1500 Larger Cross Road N. Far Hills","country":"USA","state":"NJ","city":"Far Hills","postal":"07931","priority":1,"apply_to_type":1},{"lat":"39.9670021","lng":"-75.1776573","id":14049993,"name":"Klein's Super Market","address":"2401 Pennsylvania Ave","country":"USA","state":"PA","city":"Philadelphia","postal":"19130","priority":1,"apply_to_type":1},{"lat":"39.9282993","lng":"-75.1620055","id":14049994,"name":"Korshak Bagel's","address":"1700 S 10th St","country":"USA","state":"PA","city":"Philadelphia","postal":"19148","priority":1,"apply_to_type":1},{"lat":"40.0458008","lng":"-76.3686173","id":14049995,"name":"Lancaster Farm Fresh Co-op","address":"201 Running Pump Rd","country":"USA","state":"PA","city":"Lancaster","postal":"17603","priority":1,"apply_to_type":1},{"lat":"39.9720333","lng":"-75.1354209","id":14049996,"name":"Liberty Kitchen","address":"1400 N Front St","country":"USA","state":"PA","city":"Philadelphia","postal":"19122","priority":1,"apply_to_type":1},{"lat":"39.9528269","lng":"-75.2103413","id":14049997,"name":"Local 44","address":"4333 Spruce St","country":"USA","state":"PA","city":"Philadelphia","postal":"19104","priority":1,"apply_to_type":1},{"lat":"39.8693146","lng":"-75.6712861","id":14049998,"name":"Longwood Garden's","address":"1001 Longwood Rd","country":"USA","state":"PA","city":"Kennet Square","postal":"19348","priority":1,"apply_to_type":1},{"lat":"39.9601553","lng":"-75.6063214","id":14049999,"name":"Mae's","address":"39 W Gay St","country":"USA","state":"PA","city":"West Chester","postal":"19380","priority":1,"apply_to_type":1},{"lat":"39.9170527","lng":"-75.2516856","id":14050000,"name":"Main Street Market","address":"301 Main St","country":"USA","state":"PA","city":"Darby","postal":"19023","priority":1,"apply_to_type":1},{"lat":"39.9481187","lng":"-75.2206592","id":14050001,"name":"Mariposa Food Co-op","address":"4824 Baltimore Ave","country":"USA","state":"PA","city":"Philadelphia","postal":"19143","priority":1,"apply_to_type":1},{"lat":"40.7106237","lng":"-73.9651765","id":14050002,"name":"Marlow and Daughter's","address":"95 Broadway","country":"USA","state":"NY","city":"Brooklyn","postal":"11211","priority":1,"apply_to_type":1},{"lat":"39.9143299","lng":"-75.3477084","id":14050003,"name":"Martindale's Natural Market","address":"1172 Baltimore Pike","country":"USA","state":"PA","city":"Springfield","postal":"19064","priority":1,"apply_to_type":1},{"lat":"39.9265437","lng":"-75.1737519","id":14050004,"name":"Miss Rachel's Pantry","address":"1938 S Chadwick St","country":"USA","state":"PA","city":"Philadelphia","postal":"19145","priority":1,"apply_to_type":1},{"lat":"40.6918613","lng":"-73.936659","id":14050005,"name":"Mitch's Provisions","address":"147 Lewis Ave","country":"USA","state":"NY","city":"Brooklyn","postal":"11221","priority":1,"apply_to_type":1},{"lat":"39.9498058","lng":"-75.158806","id":14050006,"name":"Morea","address":"110 S 11th St","country":"USA","state":"PA","city":"Philadelphia","postal":"19107","priority":1,"apply_to_type":1},{"lat":"40.0349311","lng":"-75.2170593","id":14050007,"name":"New Ridge Brewing Co.","address":"6168 Ridge Ave","country":"USA","state":"PA","city":"Philadelphia","postal":"19128","priority":1,"apply_to_type":1},{"lat":"39.8986808","lng":"-75.913865","id":14050008,"name":"North Star Orchard","address":"3232 Limestone Rd","country":"USA","state":"PA","city":"Cochranville","postal":"19330","priority":1,"apply_to_type":1},{"lat":"40.0759097","lng":"-75.3044959","id":14050009,"name":"Our Daily Bagel","address":"308 Fayette St","country":"USA","state":"PA","city":"Conshohocken","postal":"19428","priority":1,"apply_to_type":1},{"lat":"38.9093214","lng":"-77.0231821","id":14050010,"name":"Oyster Oyster","address":"1440 8th Street NW","country":"USA","priority":1,"apply_to_type":1},{"lat":"39.9639212","lng":"-75.1751053","id":14050011,"name":"Parkway Corner Deli","address":"2201 Pennsylvania Ave","country":"USA","state":"PA","city":"Philadelphia","postal":"19130","priority":1,"apply_to_type":1},{"lat":"40.6930682","lng":"-73.8961923","id":14050012,"name":"Precycle","address":"50 Cypress Ave","country":"USA","state":"NY","city":"Brooklyn","postal":"11237","priority":1,"apply_to_type":1},{"lat":"40.1731937","lng":"-75.6906611","id":14050013,"name":"Red Dog Market","address":"1503 Ridge Rd","country":"USA","state":"PA","city":"Pottstown","postal":"19465","priority":1,"apply_to_type":1},{"lat":"39.9412786","lng":"-75.1522881","id":14050014,"name":"Redcrest Kitchen","address":"625 S 6th St","country":"USA","state":"PA","city":"Philadelphia","postal":"19147","priority":1,"apply_to_type":1},{"lat":"39.9535967","lng":"-75.143971","id":14050015,"name":"Riverwards Market","address":"146 N Bread St","country":"USA","state":"PA","city":"Philadelphia","postal":"19106","priority":1,"apply_to_type":1},{"lat":"39.978187","lng":"-75.1299388","id":14050016,"name":"Riverwards Market","address":"2200 E Norris St #1906","country":"USA","state":"PA","city":"Philadelphia","postal":"19125","priority":1,"apply_to_type":1},{"lat":"39.973768","lng":"-75.179077","id":14050017,"name":"Rybrew","address":"2600 West Girard Avenue","country":"USA","state":"PA","city":"Philadelphia","postal":"19130","priority":1,"apply_to_type":1},{"lat":"39.9488763","lng":"-75.178877","id":14050018,"name":"Sally","address":"2229 Spruce St","country":"USA","state":"PA","city":"Philadelphia","postal":"19103","priority":1,"apply_to_type":1},{"lat":"40.1424933","lng":"-75.5807499","id":14050019,"name":"Seven Stars Farm","address":"419 W Seven Stars Rd","country":"USA","state":"PA","city":"Phoenixville","postal":"19460","priority":1,"apply_to_type":1},{"lat":"39.7660196","lng":"-75.5375196","id":14050020,"name":"Sleeping Bird Cafe","address":"3111 Miller Rd","country":"USA","state":"DE","city":"Wilmington","postal":"19802","priority":1,"apply_to_type":1},{"lat":"40.2464357","lng":"-75.2914992","id":14050021,"name":"Small Batch Kitchen","address":"711 W Main St Unit 101","country":"USA","state":"PA","city":"Lansdale","postal":"19446","priority":1,"apply_to_type":1},{"lat":"40.0233448","lng":"-75.1331372","id":14050022,"name":"Smiley's Deli and Provisions","address":"4725 N 5th St","country":"USA","state":"PA","city":"Philadelphia","postal":"19120","priority":1,"apply_to_type":1},{"lat":"39.9245366","lng":"-75.1681816","id":14050023,"name":"South Philly Food Co-op","address":"2031 S Juniper St","country":"USA","state":"PA","city":"Philadelphia","postal":"19148","priority":1,"apply_to_type":1},{"lat":"39.9023581","lng":"-75.3489154","id":14050024,"name":"Swarthmore Co-op","address":"341 Dartmouth Ave","country":"USA","state":"PA","city":"Swarthmore","postal":"19081","priority":1,"apply_to_type":1},{"lat":"40.0514844","lng":"-75.2364839","id":14050025,"name":"Sweet Java Cafe","address":"7620 Ridge Ave","country":"USA","state":"PA","city":"Philadelphia","postal":"19128","priority":1,"apply_to_type":1},{"lat":"39.9674418","lng":"-75.1683679","id":14050026,"name":"Tela’s Market","address":"1833 Fairmount Ave","country":"USA","state":"PA","city":"Philadelphia","postal":"19130","priority":1,"apply_to_type":1},{"lat":"40.2910351","lng":"-75.2144177","id":14050027,"name":"The Craft Boutique","address":"308 N Main St","country":"USA","state":"PA","city":"Chalfont","postal":"18914","priority":1,"apply_to_type":1},{"lat":"39.9495617","lng":"-75.1428765","id":14050028,"name":"The Franklin Fountain","address":"116 Market St","country":"USA","state":"PA","city":"Philadelphia","postal":"19106","priority":1,"apply_to_type":1},{"lat":"40.0163197","lng":"-75.214153","id":14050029,"name":"The Landing Kitchen","address":"617 Righters Ferry Road","country":"USA","state":"PA","city":"Bala Cynwyd","postal":"19004","priority":1,"apply_to_type":1},{"lat":"39.5635732","lng":"-74.2407215","id":14050030,"name":"The Triton","address":"308 Centre Street","country":"USA","state":"NJ","city":"Beach Haven","postal":"08008","priority":1,"apply_to_type":1},{"lat":"39.9346252","lng":"-75.4415965","id":14050031,"name":"Tyler Arboretum","address":"515 Painter Rd","country":"USA","state":"PA","city":"Media","postal":"19063","priority":1,"apply_to_type":1},{"lat":"40.1562283","lng":"-75.2187574","id":14050032,"name":"Weaver’s Way Co-op","address":"217 E Butler Ave","country":"USA","state":"PA","city":"Ambler","postal":"19002","priority":1,"apply_to_type":1},{"lat":"40.0465762","lng":"-75.1960555","id":14050033,"name":"Weaver’s Way Co-op","address":"559 Carpenter Ln","country":"USA","state":"PA","city":"Philadelphia","postal":"19119","priority":1,"apply_to_type":1},{"lat":"40.075476","lng":"-75.2057698","id":14050034,"name":"Weaver’s Way Co-op","address":"8424 Germantown Ave","country":"USA","state":"PA","city":"Philadelphia","postal":"19118","priority":1,"apply_to_type":1},{"lat":"40.3732049","lng":"-75.2043747","id":14050035,"name":"Wheat & Vine","address":"123 N Main St","country":"USA","state":"PA","city":"Dublin","postal":"18917","priority":1,"apply_to_type":1},{"lat":"40.6769914","lng":"-73.9803118","id":14050036,"name":"Winner Butcher","address":"192 5th Ave","country":"USA","state":"NY","city":"Brooklyn","postal":"11217","priority":1,"apply_to_type":1},{"lat":"40.578842","lng":"-75.321384","id":14050037,"name":"Wonder Garden","address":"3565 Reservoir Rd","country":"USA","state":"PA","city":"Hellertown","postal":"18055","priority":1,"apply_to_type":1},{"lat":"39.9419706","lng":"-75.1532384","id":14050038,"name":"Woodrows Sandwich Shop","address":"630 South St","country":"USA","state":"PA","city":"Philadelphia","postal":"19147","priority":1,"apply_to_type":1},{"lat":"40.7036243","lng":"-73.9263952","id":14050039,"name":"Yough to Go","address":"203 Knickerbocker Ave","country":"USA","state":"NY","city":"Brooklyn","postal":"11237","priority":1,"apply_to_type":1}]